"UKPRN","PROVIDER_NAME","VIEW_NAME","SORT_NAME","ALIAS","FLAT_NAME_NUMBER","BUILDING_NAME_NUMBER","LOCALITY","STREET_NAME","TOWN","POSTCODE","WEBSITE_URL","WIKIPEDIA_URL","GROUPS","LONGITUDE","LATITUDE","EASTING","NORTHING","GTR_ID","HESA_ID"
"10007784","UNIVERSITY COLLEGE LONDON","University College London","London, University College","","","","","GOWER STREET","LONDON","WC1E 6BT","http://www.ucl.ac.uk/","http://en.wikipedia.org/wiki/University_College_London","Science_and_Engineering_South, Russell_Group","-0.133401","51.524774","529589","182302","3A5E126D-C175-4730-9B7B-E6D8CF447F83","0149"
"10007774","UNIVERSITY OF OXFORD","University of Oxford","Oxford, University of","","","UNIVERSITY OFFICES","","WELLINGTON SQUARE","OXFORD","OX1 2JD","http://www.ox.ac.uk/","http://en.wikipedia.org/wiki/University_of_Oxford","Science_and_Engineering_South, Russell_Group, Oxbridge","-1.262868","51.757644","450974","206807","B1F0E8FE-FE3C-49ED-9C96-1ED75312A8A0","0156"
"10003270","IMPERIAL COLLEGE OF SCIENCE, TECHNOLOGY AND MEDICINE","Imperial College of Science, Technology and Medicine","Imperial College of Science, Technology and Medicine","","","FACULTY BUILDING","","EXHIBITION ROAD","LONDON","SW7 2AZ","http://www.imperial.ac.uk/","http://en.wikipedia.org/wiki/Imperial_College_London","Science_and_Engineering_South, Russell_Group","-0.178194","51.500506","526549","179525","46387D84-F71E-4B7D-8C7D-9C288F113510","0132"
"10007775","QUEEN MARY UNIVERSITY OF LONDON","Queen Mary and Westfield College, University of London","Queen Mary and Westfield College, University of London","","","327","","MILE END ROAD","LONDON","E1 4NS","http://www.qmul.ac.uk/","http://en.wikipedia.org/wiki/Queen_Mary,_University_of_London","Science_and_Engineering_South, NCUK, Russell_Group","-0.040505","51.523412","536037","182319","D5337A10-AC8A-402A-8164-C5F9CC6B0140","0139"
"10003645","KING'S COLLEGE LONDON","King's College London","King's College London","","","","","STRAND","LONDON","WC2R 2LS","http://www.kcl.ac.uk/","http://en.wikipedia.org/wiki/King%27s_College_London","Science_and_Engineering_South, Russell_Group","-0.116912","51.510734","530773","180770","318B5D98-4CB4-4B10-A876-08FC93071A56","0134"
"10007158","UNIVERSITY OF SOUTHAMPTON","University of Southampton","Southampton, University of","","","","","UNIVERSITY ROAD","SOUTHAMPTON","SO17 1BJ","http://www.soton.ac.uk/","http://en.wikipedia.org/wiki/University_of_Southampton","Science_and_Engineering_South, Russell_Group","-1.395675","50.934180","442562","115145","30A429E3-83B7-4E41-99C0-14A144F07DFE","0160"
